$GPGSA,A,2,09,06,07,,,,,,,,,,4.5,3.2,3.2*3A
$GPRMC,230155.448,A,5126.6788,N,00710.5837,E,1.53,347.39,270520,,,A*67
$GPGGA,230156.448,5126.6794,N,00710.5831,E,1,03,3.2,116.5,M,47.5,M,,0000*55
$GPGSA,A,2,09,06,07,,,,,,,,,,4.5,3.2,3.2*3A
$GPRMC,230156.448,A,5126.6794,N,00710.5831,E,1.18,347.28,270520,,,A*60
$GPGGA,230157.448,5126.6797,N,00710.5832,E,1,03,3.2,116.4,M,47.5,M,,0000*55
$GPGSA,A,2,09,06,07,,,,,,,,,,4.5,3.2,3.2*3A
$GPRMC,230157.448,A,5126.6797,N,00710.5832,E,0.82,347.28,270520,,,A*63
$GPGGA,230158.448,5126.6800,N,00710.5827,E,1,03,3.2,116.2,M,47.5,M,,0000*59
$GPGSA,A,2,09,06,07,,,,,,,,,,4.5,3.2,3.2*3A
$GPRMC,230158.448,A,5126.6800,N,00710.5827,E,1.15,347.28,270520,,,A*66
$GPGGA,230159.448,5126.6798,N,00710.5823,E,1,03,3.2,116.2,M,47.5,M,,0000*52
$GPGSA,A,2,09,06,07,,,,,,,,,,4.5,3.2,3.2*3A
$GPGSV,3,1,12,09,86,073,29,06,55,239,26,07,35,171,20,25,73,201,*7E
$GPGSV,3,2,12,02,67,074,,19,59,075,,21,43,061,,08,36,272,*74
$GPGSV,3,3,12,26,35,303,,22,27,125,,28,26,309,,24,21,305,*7C
$GPRMC,230159.448,A,5126.6798,N,00710.5823,E,1.70,342.94,270520,,,A*6C
$GPGGA,230200.448,5126.6802,N,00710.5821,E,1,03,3.2,116.3,M,47.5,M,,0000*52
$GPGSA,A,2,09,06,07,,,,,,,,,,4.5,3.2,3.2*3A
$GPRMC,230200.448,A,5126.6802,N,00710.5821,E,2.80,334.61,270520,,,A*6A
$GPGGA,230201.448,5126.6807,N,00710.5827,E,1,03,3.2,116.3,M,47.5,M,,0000*50
$GPGSA,A,2,09,06,07,,,,,,,,,,4.5,3.2,3.2*3A
$GPRMC,230201.448,A,5126.6807,N,00710.5827,E,1.00,334.61,270520,,,A*63
$GPGGA,230202.448,5126.6810,N,00710.5840,E,1,03,3.2,116.4,M,47.5,M,,0000*53
$GPGSA,A,2,09,06,07,,,,,,,,,,4.5,3.2,3.2*3A
$GPRMC,230202.448,A,5126.6810,N,00710.5840,E,1.40,340.90,270520,,,A*6E
$GPGGA,230203.448,5126.6817,N,00710.5848,E,1,03,3.2,116.2,M,47.5,M,,0000*5B
$GPGSA,A,2,09,06,07,,,,,,,,,,4.5,3.2,3.2*3A
$GPRMC,230203.448,A,5126.6817,N,00710.5848,E,2.57,353.53,270520,,,A*68
$GPGGA,230204.448,5126.6821,N,00710.5851,E,1,03,3.2,116.1,M,47.5,M,,0000*52
$GPGSA,A,2,09,06,07,,,,,,,,,,4.5,3.2,3.2*3A
$GPGSV,3,1,12,09,86,073,29,06,55,239,26,07,35,171,20,03,13,114,04*7F
$GPGSV,3,2,12,25,73,201,,02,67,074,,19,59,075,,21,43,061,*7E
$GPGSV,3,3,12,08,36,272,,26,35,303,,22,27,125,,28,26,309,*75
$GPRMC,230204.448,A,5126.6821,N,00710.5851,E,0.97,353.53,270520,,,A*6C
$GPGGA,230205.448,5126.6826,N,00710.5859,E,1,03,3.2,116.0,M,47.5,M,,0000*5D
$GPGSA,A,2,09,06,07,,,,,,,,,,4.5,3.2,3.2*3A
$GPRMC,230205.448,A,5126.6826,N,00710.5859,E,1.40,355.92,270520,,,A*62
$GPGGA,230206.448,5126.6826,N,00710.5864,E,1,03,3.2,115.9,M,47.5,M,,0000*5A
$GPGSA,A,2,09,06,07,,,,,,,,,,4.5,3.2,3.2*3A
$GPRMC,230206.448,A,5126.6826,N,00710.5864,E,1.34,1.15,270520,,,A*61
$GPGGA,230207.448,5126.6824,N,00710.5871,E,1,03,3.2,115.8,M,47.5,M,,0000*5C
$GPGSA,A,2,09,06,07,,,,,,,,,,4.5,3.2,3.2*3A
$GPRMC,230207.448,A,5126.6824,N,00710.5871,E,1.20,9.42,270520,,,A*69
$GPGGA,230208.448,5126.6821,N,00710.5868,E,1,03,3.2,115.7,M,47.5,M,,0000*51
$GPGSA,A,2,09,06,07,,,,,,,,,,4.5,3.2,3.2*3A
$GPRMC,230208.448,A,5126.6821,N,00710.5868,E,0.57,9.42,270520,,,A*6A
$GPGGA,230209.448,5126.6818,N,00710.5867,E,1,04,3.3,115.5,M,47.5,M,,0000*51
$GPGSA,A,3,09,06,07,03,,,,,,,,,5.3,3.3,4.1*3A
$GPGSV,3,1,12,09,86,073,29,06,55,239,26,07,35,171,20,03,13,114,12*78
$GPGSV,3,2,12,25,73,201,,02,67,074,,19,59,075,,21,43,061,*7E
$GPGSV,3,3,12,08,36,272,,26,35,303,,22,27,125,,28,26,309,*75
$GPRMC,230209.448,A,5126.6818,N,00710.5867,E,0.23,9.42,270520,,,A*6D
$GPGGA,230210.448,5126.6815,N,00710.5860,E,1,04,3.3,115.5,M,47.5,M,,0000*53
$GPGSA,A,3,09,06,07,03,,,,,,,,,5.3,3.3,4.1*3A
$GPRMC,230210.448,A,5126.6815,N,00710.5860,E,0.59,9.42,270520,,,A*62
$GPGGA,230211.448,5126.6814,N,00710.5855,E,1,04,3.3,115.5,M,47.5,M,,0000*55
$GPGSA,A,3,09,06,07,03,,,,,,,,,5.3,3.3,4.1*3A
$GPRMC,230211.448,A,5126.6814,N,00710.5855,E,1.20,11.35,270520,,,A*52
$GPGGA,230212.448,5126.6814,N,00710.5852,E,1,03,3.2,115.3,M,47.5,M,,0000*51
$GPGSA,A,2,09,06,07,,,,,,,,,,4.5,3.2,3.2*3A
$GPRMC,230212.448,A,5126.6814,N,00710.5852,E,1.48,13.61,270520,,,A*5B
$PSRF156,23,1,0*09
$GPGGA,230213.448,5126.6816,N,00710.5848,E,1,03,3.2,115.1,M,47.5,M,,0000*5B
$GPGSA,A,2,09,06,07,,,,,,,,,,4.5,3.2,3.2*3A
$GPRMC,230213.448,A,5126.6816,N,00710.5848,E,0.64,13.61,270520,,,A*5C
$GPGGA,230214.448,5126.6815,N,00710.5854,E,1,04,3.3,115.0,M,47.5,M,,0000*55
$GPGSA,A,3,09,06,07,03,,,,,,,,,5.3,3.3,4.1*3A
$GPGSV,3,1,12,09,86,073,28,06,55,239,26,07,35,171,20,03,13,114,09*73
$GPGSV,3,2,12,25,73,201,,02,67,074,,19,59,075,,21,43,061,*7E
$GPGSV,3,3,12,08,36,272,,26,35,303,,22,27,125,,28,26,309,*75
$GPRMC,230214.448,A,5126.6815,N,00710.5854,E,1.41,46.43,270520,,,A*53
$GPGGA,230215.448,5126.6822,N,00710.5859,E,1,04,3.3,115.0,M,47.5,M,,0000*5D
$GPGSA,A,3,09,06,07,03,,,,,,,,,5.3,3.3,4.1*3A
$GPRMC,230215.448,A,5126.6822,N,00710.5859,E,1.50,44.99,270520,,,A*5E
$GPGGA,230216.448,5126.6828,N,00710.5853,E,1,04,3.3,114.5,M,47.5,M,,0000*5A
$GPGSA,A,3,09,06,07,03,,,,,,,,,5.3,3.3,4.1*3A
$GPRMC,230216.448,A,5126.6828,N,00710.5853,E,0.23,44.99,270520,,,A*58
$GPGGA,230217.448,5126.6836,N,00710.5844,E,1,04,3.3,114.1,M,47.5,M,,0000*56
$GPGSA,A,3,09,06,07,03,,,,,,,,,5.3,3.3,4.1*3A
$GPRMC,230217.448,A,5126.6836,N,00710.5844,E,0.42,44.99,270520,,,A*57
$GPGGA,230218.448,5126.6847,N,00710.5845,E,1,04,3.3,113.8,M,47.5,M,,0000*50
$GPGSA,A,3,09,06,07,03,,,,,,,,,5.3,3.3,4.1*3A
$GPRMC,230218.448,A,5126.6847,N,00710.5845,E,1.87,31.16,270520,,,A*52
$GPGGA,230219.448,5126.6858,N,00710.5846,E,1,04,3.2,113.4,M,47.5,M,,0000*51
$GPGSA,A,3,09,06,07,03,,,,,,,,,5.3,3.2,4.1*3B
$GPGSV,3,1,12,09,86,073,29,06,55,239,26,07,35,171,20,03,13,114,12*78
$GPGSV,3,2,12,25,73,201,,02,67,074,,19,59,075,,21,43,061,*7E
$GPGSV,3,3,12,08,36,272,,26,35,303,,22,27,125,,28,26,309,*75
$GPRMC,230219.448,A,5126.6858,N,00710.5846,E,1.68,25.76,270520,,,A*5C
$GPGGA,230220.448,5126.6861,N,00710.5844,E,1,04,3.2,113.1,M,47.5,M,,0000*56
$GPGSA,A,3,09,06,07,03,,,,,,,,,5.3,3.2,4.1*3B
$GPRMC,230220.448,A,5126.6861,N,00710.5844,E,0.21,25.76,270520,,,A*52
$GPGGA,230221.448,5126.6865,N,00710.5841,E,1,04,3.2,112.8,M,47.5,M,,0000*5E
$GPGSA,A,3,09,06,07,03,,,,,,,,,5.3,3.2,4.1*3B
$GPRMC,230221.448,A,5126.6865,N,00710.5841,E,0.90,25.76,270520,,,A*58
$GPGGA,230222.448,5126.6865,N,00710.5837,E,1,04,3.2,112.6,M,47.5,M,,0000*52
$GPGSA,A,3,09,06,07,03,,,,,,,,,5.3,3.2,4.1*3B
$GPRMC,230222.448,A,5126.6865,N,00710.5837,E,0.22,25.76,270520,,,A*53
$GPGGA,230223.448,5126.6870,N,00710.5838,E,1,04,3.2,112.3,M,47.5,M,,0000*5D
$GPGSA,A,3,09,06,07,03,,,,,,,,,5.3,3.2,4.1*3B
$GPRMC,230223.448,A,5126.6870,N,00710.5838,E,1.27,20.06,270520,,,A*5F
$GPGGA,230224.448,5126.6872,N,00710.5837,E,1,04,3.2,112.2,M,47.5,M,,0000*56
$GPGSA,A,3,09,06,07,03,,,,,,,,,5.3,3.2,4.1*3B
$GPGSV,3,1,12,09,86,073,29,06,55,239,26,07,35,171,20,03,13,114,12*78
$GPGSV,3,2,12,25,73,201,,02,67,074,,19,59,075,,21,43,061,*7E
$GPGSV,3,3,12,08,36,272,,26,35,303,,22,27,125,,28,26,309,*75
$GPRMC,230224.448,A,5126.6872,N,00710.5837,E,0.28,20.06,270520,,,A*5B
$GPGGA,230225.448,5126.6870,N,00710.5829,E,1,04,3.2,112.0,M,47.5,M,,0000*58
$GPGSA,A,3,09,06,07,03,,,,,,,,,5.2,3.2,4.1*3A
$GPRMC,230225.448,A,5126.6870,N,00710.5829,E,1.06,20.06,270520,,,A*5A
$GPGGA,230226.448,5126.6862,N,00710.5819,E,1,04,3.2,112.0,M,47.5,M,,0000*5B
$GPGSA,A,3,09,06,07,03,,,,,,,,,5.2,3.2,4.1*3A
$GPRMC,230226.448,A,5126.6862,N,00710.5819,E,2.52,312.24,270520,,,A*69
$GPGGA,230227.448,5126.6852,N,00710.5811,E,1,04,3.2,112.2,M,47.5,M,,0000*53
$GPGSA,A,3,09,06,07,03,,,,,,,,,5.2,3.2,4.1*3A
$GPRMC,230227.448,A,5126.6852,N,00710.5811,E,2.39,284.88,270520,,,A*66
$GPGGA,230228.448,5126.6846,N,00710.5808,E,1,04,3.2,112.4,M,47.5,M,,0000*57
$GPGSA,A,3,09,06,07,03,,,,,,,,,5.2,3.2,4.1*3A
$GPRMC,230228.448,A,5126.6846,N,00710.5808,E,0.86,284.88,270520,,,A*62
$GPGGA,230229.448,5126.6841,N,00710.5808,E,1,04,3.2,112.5,M,47.5,M,,0000*50
$GPGSA,A,3,09,06,07,03,,,,,,,,,5.2,3.2,4.1*3A
$GPGSV,3,1,12,09,86,073,29,06,55,239,26,07,35,171,20,03,13,114,13*79
$GPGSV,3,2,12,25,73,201,,02,67,074,,19,59,075,,21,43,061,*7E
$GPGSV,3,3,12,08,36,272,,26,35,303,,22,27,125,,28,26,309,*75
$GPRMC,230229.448,A,5126.6841,N,00710.5808,E,0.58,284.88,270520,,,A*67
$GPGGA,230230.448,5126.6842,N,00710.5807,E,1,04,3.2,112.6,M,47.5,M,,0000*57
$GPGSA,A,3,09,06,07,03,,,,,,,,,5.2,3.2,4.1*3A
$GPRMC,230230.448,A,5126.6842,N,00710.5807,E,0.67,284.88,270520,,,A*6F
$GPGGA,230231.448,5126.6846,N,00710.5805,E,1,04,3.2,112.5,M,47.5,M,,0000*53
$GPGSA,A,3,09,06,07,03,,,,,,,,,5.2,3.2,4.1*3A
$GPRMC,230231.448,A,5126.6846,N,00710.5805,E,0.89,284.88,270520,,,A*68
$GPGGA,230232.448,5126.6851,N,00710.5803,E,1,04,3.2,112.4,M,47.5,M,,0000*51
$GPGSA,A,3,09,06,07,03,,,,,,,,,5.2,3.2,4.1*3A
$GPRMC,230232.448,A,5126.6851,N,00710.5803,E,1.31,293.23,270520,,,A*6E
$GPGGA,230233.448,5126.6854,N,00710.5799,E,1,04,3.2,112.3,M,47.5,M,,0000*5E
$GPGSA,A,3,09,06,07,03,,,,,,,,,5.2,3.2,4.1*3A
$GPRMC,230233.448,A,5126.6854,N,00710.5799,E,0.91,293.23,270520,,,A*6D
$GPGGA,230234.448,5126.6846,N,00710.5788,E,1,04,3.2,112.3,M,47.5,M,,0000*5A
$GPGSA,A,3,09,06,07,03,,,,,,,,,5.2,3.2,4.1*3A
$GPGSV,3,1,12,09,86,073,29,06,55,239,26,07,35,171,19,03,13,114,11*71
$GPGSV,3,2,12,25,73,201,,02,67,074,,19,59,075,,21,43,061,*7E
$GPGSV,3,3,12,08,36,272,,26,35,303,,22,27,125,,28,26,309,*75
$GPRMC,230234.448,A,5126.6846,N,00710.5788,E,2.10,283.26,270520,,,A*66
$GPGGA,230235.448,5126.6836,N,00710.5778,E,1,04,3.2,112.3,M,47.5,M,,0000*53
$GPGSA,A,3,09,06,07,03,,,,,,,,,5.2,3.2,4.1*3A
$GPRMC,230235.448,A,5126.6836,N,00710.5778,E,2.15,271.22,270520,,,A*63
$GPGGA,230236.448,5126.6828,N,00710.5763,E,1,04,3.2,112.3,M,47.5,M,,0000*55
$GPGSA,A,3,09,06,07,03,,,,,,,,,5.2,3.2,4.1*3A
$GPRMC,230236.448,A,5126.6828,N,00710.5763,E,1.35,271.66,270520,,,A*64
$GPGGA,230237.448,5126.6821,N,00710.5754,E,1,04,3.2,112.6,M,47.5,M,,0000*5C
$GPGSA,A,3,09,06,07,03,,,,,,,,,5.2,3.2,4.1*3A
$GPRMC,230237.448,A,5126.6821,N,00710.5754,E,1.41,267.58,270520,,,A*61
$GPGGA,230238.448,5126.6813,N,00710.5748,E,1,04,3.2,112.9,M,47.5,M,,0000*50
$GPGSA,A,3,09,06,07,03,,,,,,,,,5.2,3.2,4.1*3A
$GPRMC,230238.448,A,5126.6813,N,00710.5748,E,1.72,254.87,270520,,,A*60
$GPGGA,230239.448,5126.6808,N,00710.5750,E,1,04,3.2,113.1,M,47.5,M,,0000*5B
$GPGSA,A,3,09,06,07,03,,,,,,,,,5.2,3.2,4.1*3A
$GPGSV,3,1,12,09,86,073,29,06,55,239,26,07,35,171,18,03,13,114,10*71
$GPGSV,3,2,12,25,73,201,,02,67,074,,19,59,075,,21,43,061,*7E
$GPGSV,3,3,12,08,36,272,,26,35,303,,22,27,125,,28,26,309,*75
$GPRMC,230239.448,A,5126.6808,N,00710.5750,E,0.69,254.87,270520,,,A*69
$GPGGA,230240.448,5126.6800,N,00710.5751,E,1,04,3.2,113.5,M,47.5,M,,0000*58
$GPGSA,A,3,09,06,07,03,,,,,,,,,5.2,3.2,4.1*3A
$GPRMC,230240.448,A,5126.6800,N,00710.5751,E,1.07,254.87,270520,,,A*67
$GPGGA,230241.448,5126.6799,N,00710.5751,E,1,04,3.2,113.7,M,47.5,M,,0000*54
$GPGSA,A,3,09,06,07,03,,,,,,,,,5.2,3.2,4.1*3A
$GPRMC,230241.448,A,5126.6799,N,00710.5751,E,0.58,254.87,270520,,,A*62
$GPGGA,230242.448,5126.6800,N,00710.5757,E,1,04,3.2,113.9,M,47.5,M,,0000*50
$GPGSA,A,3,09,06,07,03,,,,,,,,,5.2,3.2,4.1*3A
$GPRMC,230242.448,A,5126.6800,N,00710.5757,E,1.11,254.87,270520,,,A*64
$GPGGA,230243.448,5126.6797,N,00710.5759,E,1,04,3.2,114.1,M,47.5,M,,0000*51
$GPGSA,A,3,09,06,07,03,,,,,,,,,5.2,3.2,4.1*3A
$GPRMC,230243.448,A,5126.6797,N,00710.5759,E,1.10,254.87,270520,,,A*6B
$GPGGA,230244.448,5126.6794,N,00710.5764,E,1,04,3.2,114.5,M,47.5,M,,0000*5F
$GPGSA,A,3,09,06,07,03,,,,,,,,,5.2,3.2,4.1*3A
$GPGSV,3,1,12,09,86,073,29,06,55,239,26,07,35,171,17,03,13,114,11*7F
$GPGSV,3,2,12,25,73,201,,02,67,074,,19,59,075,,21,43,061,*7E
$GPGSV,3,3,12,08,36,272,,26,35,303,,22,27,125,,28,26,309,*75
$GPRMC,230244.448,A,5126.6794,N,00710.5764,E,1.37,277.34,270520,,,A*6D
$GPGGA,230245.448,5126.6789,N,00710.5766,E,1,04,3.2,114.9,M,47.5,M,,0000*5C
$GPGSA,A,3,09,06,07,03,,,,,,,,,5.2,3.2,4.1*3A
$GPRMC,230245.448,A,5126.6789,N,00710.5766,E,0.57,277.34,270520,,,A*65
$GPGGA,230246.448,5126.6782,N,00710.5770,E,1,04,3.2,115.5,M,47.5,M,,0000*5E
$GPGSA,A,3,09,06,07,03,,,,,,,,,5.2,3.2,4.1*3A
$GPRMC,230246.448,A,5126.6782,N,00710.5770,E,0.96,277.34,270520,,,A*67
$GPGGA,230247.448,5126.6775,N,00710.5772,E,1,04,3.2,116.1,M,47.5,M,,0000*52
$GPGSA,A,3,09,06,07,03,,,,,,,,,5.2,3.2,4.1*3A
$GPRMC,230247.448,A,5126.6775,N,00710.5772,E,1.54,257.61,270520,,,A*61
$GPGGA,230248.448,5126.6772,N,00710.5774,E,1,04,3.2,116.8,M,47.5,M,,0000*55
$GPGSA,A,3,09,06,07,03,,,,,,,,,5.2,3.2,4.1*3A
$GPRMC,230248.448,A,5126.6772,N,00710.5774,E,0.33,257.61,270520,,,A*6F
$GPGGA,230249.448,5126.6770,N,00710.5773,E,1,04,3.2,117.3,M,47.5,M,,0000*5B
$GPGSA,A,3,09,06,07,03,,,,,,,,,5.2,3.2,4.1*3A
$GPGSV,3,1,12,09,86,073,29,06,55,239,26,07,35,171,16,03,13,114,14*7B
$GPGSV,3,2,12,25,73,201,,02,67,074,,19,59,075,,21,43,061,*7E
$GPGSV,3,3,12,08,36,272,,26,35,303,,22,27,125,,28,26,309,*75
$GPRMC,230249.448,A,5126.6770,N,00710.5773,E,0.49,257.61,270520,,,A*66
$GPGGA,230250.448,5126.6768,N,00710.5772,E,1,04,3.2,117.8,M,47.5,M,,0000*50
$GPGSA,A,3,09,06,07,03,,,,,,,,,5.2,3.2,4.1*3A
$GPRMC,230250.448,A,5126.6768,N,00710.5772,E,0.27,257.61,270520,,,A*6E
$GPGGA,230251.448,5126.6764,N,00710.5768,E,1,04,3.2,118.3,M,47.5,M,,0000*52
$GPGSA,A,3,09,06,07,03,,,,,,,,,5.2,3.2,4.1*3A
$GPRMC,230251.448,A,5126.6764,N,00710.5768,E,1.21,247.85,270520,,,A*64
$GPGGA,230252.448,5126.6766,N,00710.5764,E,1,04,3.2,118.7,M,47.5,M,,0000*5B
$GPGSA,A,3,09,06,07,03,,,,,,,,,5.2,3.2,4.1*3A
$GPRMC,230252.448,A,5126.6766,N,00710.5764,E,0.56,247.85,270520,,,A*68
$GPGGA,230253.448,5126.6769,N,00710.5764,E,1,04,3.2,119.0,M,47.5,M,,0000*53
$GPGSA,A,3,09,06,07,03,,,,,,,,,5.2,3.2,4.1*3A
$GPRMC,230253.448,A,5126.6769,N,00710.5764,E,0.22,247.85,270520,,,A*65
$GPGGA,230254.448,5126.6773,N,00710.5763,E,1,04,3.2,119.3,M,47.5,M,,0000*5B
$GPGSA,A,3,09,06,07,03,,,,,,,,,5.2,3.2,4.1*3A
$GPGSV,3,1,12,09,86,073,29,06,55,239,26,07,35,171,17,03,13,114,14*7A
$GPGSV,3,2,12,25,73,201,,02,67,074,,19,59,075,,21,43,061,*7E
$GPGSV,3,3,12,08,36,272,,26,35,303,,22,27,125,,28,26,309,*75
$GPRMC,230254.448,A,5126.6773,N,00710.5763,E,1.30,270.34,270520,,,A*62
$GPGGA,230255.448,5126.6777,N,00710.5764,E,1,04,3.2,119.7,M,47.5,M,,0000*5D
$GPGSA,A,3,09,06,07,03,,,,,,,,,5.2,3.2,4.1*3A
$GPRMC,230255.448,A,5126.6777,N,00710.5764,E,1.11,270.34,270520,,,A*63
$GPGGA,230256.448,5126.6785,N,00710.5767,E,1,04,3.2,120.0,M,47.5,M,,0000*5D
$GPGSA,A,3,09,06,07,03,,,,,,,,,5.2,3.2,4.1*3A
$GPRMC,230256.448,A,5126.6785,N,00710.5767,E,1.69,297.81,270520,,,A*66
$GPGGA,230257.448,5126.6786,N,00710.5769,E,1,04,3.2,120.3,M,47.5,M,,0000*52
$GPGSA,A,3,09,06,07,03,,,,,,,,,5.2,3.2,4.1*3A
$GPRMC,230257.448,A,5126.6786,N,00710.5769,E,1.70,313.40,270520,,,A*62
$GPGGA,230258.448,5126.6782,N,00710.5772,E,1,04,3.2,120.7,M,47.5,M,,0000*57
$GPGSA,A,3,09,06,07,03,,,,,,,,,5.2,3.2,4.1*3A
$GPRMC,230258.448,A,5126.6782,N,00710.5772,E,0.36,313.40,270520,,,A*60
$GPGGA,230259.448,5126.6779,N,00710.5780,E,1,04,3.2,121.1,M,47.5,M,,0000*58
$GPGSA,A,3,09,06,07,03,,,,,,,,,5.2,3.2,4.1*3A
$GPGSV,3,1,12,09,86,073,29,06,55,239,26,07,35,171,18,03,13,114,13*72
$GPGSV,3,2,12,25,73,201,,02,67,074,,19,59,075,,21,43,061,*7E
$GPGSV,3,3,12,08,36,272,,26,35,303,,22,27,125,,28,26,309,*75
$GPRMC,230259.448,A,5126.6779,N,00710.5780,E,0.46,313.40,270520,,,A*6F
$GPGGA,230300.448,5126.6779,N,00710.5788,E,1,04,3.2,121.5,M,47.5,M,,0000*59
$GPGSA,A,3,09,06,07,03,,,,,,,,,5.2,3.2,4.1*3A
$GPRMC,230300.448,A,5126.6779,N,00710.5788,E,0.73,313.40,270520,,,A*6C
$GPGGA,230301.448,5126.6776,N,00710.5791,E,1,04,3.2,122.0,M,47.5,M,,0000*59
$GPGSA,A,3,09,06,07,03,,,,,,,,,5.2,3.2,4.1*3A
$GPRMC,230301.448,A,5126.6776,N,00710.5791,E,0.64,313.40,270520,,,A*6C
$GPGGA,230302.448,5126.6768,N,00710.5790,E,1,03,3.3,122.3,M,47.5,M,,0000*51
$GPGSA,A,2,06,07,03,,,,,,,,,,4.6,3.3,3.2*32
$GPRMC,230302.448,A,5126.6768,N,00710.5790,E,0.36,313.40,270520,,,A*66
$GPGGA,230303.448,5126.6758,N,00710.5789,E,1,03,3.3,122.6,M,47.5,M,,0000*5E
$GPGSA,A,2,06,07,03,,,,,,,,,,4.6,3.3,3.2*32
$GPRMC,230303.448,A,5126.6758,N,00710.5789,E,1.74,291.88,270520,,,A*64
$GPGGA,230304.448,5126.6746,N,00710.5792,E,1,03,3.3,123.0,M,47.5,M,,0000*5B
$GPGSA,A,2,06,07,03,,,,,,,,,,4.6,3.3,3.2*32
$GPGSV,3,1,12,06,54,236,26,07,36,171,19,03,12,115,14,09,84,070,30*70
$GPGSV,3,2,12,25,72,197,,02,66,072,,19,57,076,,21,42,060,*79
$GPGSV,3,3,12,08,38,272,,26,36,303,,28,28,309,,22,28,124,*78
$GPRMC,230304.448,A,5126.6746,N,00710.5792,E,1.81,266.74,270520,,,A*67
$GPGGA,230305.447,5126.6741,N,00710.5793,E,6,00,50.0,123.0,M,47.5,M,,0000*62
$GPGSA,A,2,,,,,,,,,,,,,50.0,50.0,50.0*06
$GPRMC,230305.447,V,5126.6741,N,00710.5793,E,1.81,261.36,270520,,,E*7D
$GPGGA,230306.447,5126.6736,N,00710.5795,E,6,00,50.0,123.0,M,47.5,M,,0000*67
$GPGSA,A,2,,,,,,,,,,,,,50.0,50.0,50.0*06
$GPRMC,230306.447,V,5126.6736,N,00710.5795,E,1.81,258.29,270520,,,E*7C
$GPGGA,230307.447,5126.6725,N,00710.5783,E,1,03,5.1,122.9,M,47.5,M,,0000*5E
$GPGSA,A,2,09,06,03,,,,,,,,,,6.0,5.1,3.2*3C
$GPRMC,230307.447,A,5126.6725,N,00710.5783,E,2.98,240.93,270520,,,A*68
$GPGGA,230308.447,5126.6717,N,00710.5779,E,6,00,50.0,122.9,M,47.5,M,,0000*60
$GPGSA,A,2,,,,,,,,,,,,,50.0,50.0,50.0*06
$GPRMC,230308.447,V,5126.6717,N,00710.5779,E,2.98,236.43,270520,,,E*7C
$GPGGA,230309.447,5126.6709,N,00710.5775,E,6,00,50.0,122.9,M,47.5,M,,0000*62
$GPGSA,A,2,,,,,,,,,,,,,50.0,50.0,50.0*06
$GPGSV,3,1,12,03,12,115,13,06,54,236,25,09,84,070,,25,72,197,*77
$GPGSV,3,2,12,02,66,072,,19,57,076,,21,42,060,,08,38,272,*70
$GPGSV,3,3,12,07,36,171,,26,36,303,,28,28,309,,22,28,124,*79
$GPRMC,230309.447,V,5126.6709,N,00710.5775,E,2.98,233.88,270520,,,E*7C
$GPGGA,230310.447,5126.6727,N,00710.5782,E,1,03,5.0,122.9,M,47.5,M,,0000*5A
$GPGSA,A,2,09,06,03,,,,,,,,,,6.0,5.0,3.2*3D
$GPRMC,230310.447,A,5126.6727,N,00710.5782,E,0.65,233.88,270520,,,A*63
$GPGGA,230311.447,5126.6728,N,00710.5783,E,6,00,50.0,122.9,M,47.5,M,,0000*61
$GPGSA,A,2,,,,,,,,,,,,,50.0,50.0,50.0*06
$GPRMC,230311.447,V,5126.6728,N,00710.5783,E,0.65,233.88,270520,,,E*7F
$GPGGA,230312.447,5126.6730,N,00710.5784,E,6,00,50.0,122.9,M,47.5,M,,0000*6C
$GPGSA,A,2,,,,,,,,,,,,,50.0,50.0,50.0*06
$GPRMC,230312.447,V,5126.6730,N,00710.5784,E,0.65,233.88,270520,,,E*72
$GPGGA,230313.447,5126.6732,N,00710.5785,E,6,00,50.0,123.0,M,47.5,M,,0000*66
$GPGSA,A,2,,,,,,,,,,,,,50.0,50.0,50.0*06
$GPRMC,230313.447,V,5126.6732,N,00710.5785,E,0.65,233.88,270520,,,E*70
$GPGGA,230314.447,5126.6733,N,00710.5786,E,6,00,50.0,123.0,M,47.5,M,,0000*63
$GPGSA,A,2,,,,,,,,,,,,,50.0,50.0,50.0*06
$GPGSV,3,1,12,03,12,115,16,06,54,236,25,07,36,171,18,09,84,070,*73
$GPGSV,3,2,12,25,72,197,,02,66,072,,19,57,076,,21,42,060,*79
$GPGSV,3,3,12,08,38,272,,26,36,303,,28,28,309,,22,28,124,*78
$GPRMC,230314.447,V,5126.6733,N,00710.5786,E,0.65,233.88,270520,,,E*75
$GPGGA,230315.447,5126.6696,N,00710.5790,E,1,03,3.3,123.4,M,47.5,M,,0000*5E
$GPGSA,A,2,06,07,03,,,,,,,,,,4.6,3.3,3.2*32
$GPRMC,230315.447,A,5126.6696,N,00710.5790,E,2.37,225.77,270520,,,A*6C
$GPGGA,230316.447,5126.6688,N,00710.5777,E,1,03,5.0,123.5,M,47.5,M,,0000*5F
$GPGSA,A,2,09,06,03,,,,,,,,,,5.9,5.0,3.2*37
$GPRMC,230316.447,A,5126.6688,N,00710.5777,E,2.98,219.82,270520,,,A*69
$GPGGA,230317.447,5126.6673,N,00710.5778,E,1,04,3.2,124.3,M,47.5,M,,0000*57
$GPGSA,A,3,09,06,07,03,,,,,,,,,5.2,3.2,4.1*3A
$GPRMC,230317.447,A,5126.6673,N,00710.5778,E,1.34,215.37,270520,,,A*64
$GPGGA,230318.447,5126.6687,N,00710.5782,E,1,04,3.2,124.6,M,47.5,M,,0000*53
$GPGSA,A,3,09,06,07,03,,,,,,,,,5.2,3.2,4.1*3A
$GPRMC,230318.447,A,5126.6687,N,00710.5782,E,1.04,215.37,270520,,,A*66
$GPGGA,230319.447,5126.6690,N,00710.5790,E,1,04,3.2,125.2,M,47.5,M,,0000*52
$GPGSA,A,3,09,06,07,03,,,,,,,,,5.2,3.2,4.1*3A
$GPGSV,3,1,12,09,84,070,29,06,54,236,25,07,36,171,21,03,12,115,16*72
$GPGSV,3,2,12,25,72,197,,02,66,072,,19,57,076,,21,42,060,*79
$GPGSV,3,3,12,08,38,272,,26,36,303,,28,28,309,,22,28,124,*78
$GPRMC,230319.447,A,5126.6690,N,00710.5790,E,2.75,194.45,270520,,,A*68
$GPGGA,230320.447,5126.6690,N,00710.5790,E,1,04,3.2,125.2,M,47.5,M,,0000*58
$GPGSA,A,3,09,06,07,03,,,,,,,,,5.2,3.2,4.1*3A
$GPRMC,230320.447,A,5126.6690,N,00710.5790,E,1.54,192.05,270520,,,A*60
$GPGGA,230321.447,5126.6688,N,00710.5799,E,1,04,3.2,126.2,M,47.5,M,,0000*5A
$GPGSA,A,3,09,06,07,03,,,,,,,,,5.2,3.2,4.1*3A
$GPRMC,230321.447,A,5126.6688,N,00710.5799,E,2.75,184.18,270520,,,A*6A
$GPGGA,230322.447,5126.6696,N,00710.5806,E,1,04,3.2,127.3,M,47.5,M,,0000*5F
$GPGSA,A,3,09,06,07,03,,,,,,,,,5.2,3.2,4.1*3A
$GPRMC,230322.447,A,5126.6696,N,00710.5806,E,1.36,180.44,270520,,,A*66
$GPGGA,230323.447,5126.6703,N,00710.5804,E,1,04,3.2,127.2,M,47.5,M,,0000*50
$GPGSA,A,3,09,06,07,03,,,,,,,,,5.2,3.2,4.1*3A
$GPRMC,230323.447,A,5126.6703,N,00710.5804,E,0.68,180.44,270520,,,A*62
$GPGGA,230324.447,5126.6694,N,00710.5801,E,1,04,3.2,128.4,M,47.5,M,,0000*54
$GPGSA,A,3,09,06,07,03,,,,,,,,,5.2,3.2,4.1*3A
$GPGSV,3,1,12,09,84,070,31,06,54,236,25,07,36,171,21,03,12,115,16*7B
$GPGSV,3,2,12,25,72,197,,02,66,072,,19,57,076,,21,42,060,*79
$GPGSV,3,3,12,08,38,272,,26,36,303,,28,28,309,,22,28,124,*78
$GPRMC,230324.447,A,5126.6694,N,00710.5801,E,1.94,182.39,270520,,,A*65
$GPGGA,230325.447,5126.6684,N,00710.5797,E,1,04,3.2,129.1,M,47.5,M,,0000*50
$GPGSA,A,3,09,06,07,03,,,,,,,,,5.2,3.2,4.1*3A
$GPRMC,230325.447,A,5126.6684,N,00710.5797,E,0.96,182.39,270520,,,A*66
$GPGGA,230326.447,5126.6675,N,00710.5792,E,1,04,3.2,129.8,M,47.5,M,,0000*51
$GPGSA,A,3,09,06,07,03,,,,,,,,,5.2,3.2,4.1*3A
$GPRMC,230326.447,A,5126.6675,N,00710.5792,E,0.57,182.39,270520,,,A*63
$GPGGA,230327.447,5126.6667,N,00710.5782,E,1,04,3.2,130.1,M,47.5,M,,0000*53
$GPGSA,A,3,09,06,07,03,,,,,,,,,5.2,3.2,4.1*3A
$GPRMC,230327.447,A,5126.6667,N,00710.5782,E,0.88,182.39,270520,,,A*62
$GPGGA,230328.447,5126.6666,N,00710.5791,E,1,04,3.2,131.8,M,47.5,M,,0000*57
$GPGSA,A,3,09,06,07,03,,,,,,,,,5.2,3.2,4.1*3A
$GPRMC,230328.447,A,5126.6666,N,00710.5791,E,2.12,165.89,270520,,,A*6D
$GPGGA,230329.447,5126.6666,N,00710.5799,E,1,04,3.2,133.5,M,47.5,M,,0000*51
$GPGSA,A,3,09,06,07,03,,,,,,,,,5.2,3.2,4.1*3A
$GPGSV,3,1,12,09,84,070,31,06,54,236,25,07,36,171,21,03,12,115,17*7A
$GPGSV,3,2,12,25,72,197,,02,66,072,,19,57,076,,21,42,060,*79
$GPGSV,3,3,12,08,38,272,,26,36,303,,28,28,309,,22,28,124,*78
$GPRMC,230329.447,A,5126.6666,N,00710.5799,E,1.51,152.63,270520,,,A*60
$GPGGA,230330.447,5126.6663,N,00710.5806,E,1,04,3.2,135.8,M,47.5,M,,0000*5E
$GPGSA,A,3,09,06,07,03,,,,,,,,,5.2,3.2,4.1*3A
$GPRMC,230330.447,A,5126.6663,N,00710.5806,E,0.46,152.63,270520,,,A*63
$GPGGA,230331.447,5126.6661,N,00710.5808,E,1,04,3.2,138.4,M,47.5,M,,0000*52
$GPGSA,A,3,09,06,07,03,,,,,,,,,5.2,3.2,4.1*3A
$GPRMC,230331.447,A,5126.6661,N,00710.5808,E,0.22,152.63,270520,,,A*6C
$GPGGA,230332.446,5126.6664,N,00710.5806,E,1,04,3.2,139.7,M,47.5,M,,0000*59
$GPGSA,A,3,09,06,07,03,,,,,,,,,5.2,3.2,4.1*3A
$GPRMC,230332.446,A,5126.6664,N,00710.5806,E,0.93,152.63,270520,,,A*6F
$GPGGA,230333.447,5126.6663,N,00710.5803,E,1,04,3.2,140.6,M,47.5,M,,0000*54
$GPGSA,A,3,09,06,07,03,,,,,,,,,5.2,3.2,4.1*3A
$GPRMC,230333.447,A,5126.6663,N,00710.5803,E,1.06,152.63,270520,,,A*60
$GPGGA,230334.447,5126.6663,N,00710.5797,E,1,04,3.2,140.4,M,47.5,M,,0000*53
$GPGSA,A,3,09,06,07,03,,,,,,,,,5.2,3.2,4.1*3A
$GPGSV,3,1,12,09,84,070,31,06,54,236,25,07,36,171,21,03,12,115,18*75
$GPGSV,3,2,12,25,72,197,,02,66,072,,19,57,076,,21,42,060,*79
$GPGSV,3,3,12,08,38,272,,26,36,303,,28,28,309,,22,28,124,*78
$GPRMC,230334.447,A,5126.6663,N,00710.5797,E,0.85,152.63,270520,,,A*6F
$GPGGA,230335.447,5126.6656,N,00710.5782,E,1,04,3.2,140.8,M,47.5,M,,0000*5C
$GPGSA,A,3,09,06,07,03,,,,,,,,,5.2,3.2,4.1*3A
$GPRMC,230335.447,A,5126.6656,N,00710.5782,E,1.25,160.03,270520,,,A*60
$GPGGA,230336.447,5126.6647,N,00710.5776,E,1,04,3.2,142.7,M,47.5,M,,0000*59
$GPGSA,A,3,09,06,07,03,,,,,,,,,5.2,3.2,4.0*3B
$GPRMC,230336.447,A,5126.6647,N,00710.5776,E,1.83,168.78,270520,,,A*60
$GPGGA,230337.447,5126.6648,N,00710.5766,E,1,04,3.2,143.0,M,47.5,M,,0000*50
$GPGSA,A,3,09,06,07,03,,,,,,,,,5.2,3.2,4.0*3B
$GPRMC,230337.447,A,5126.6648,N,00710.5766,E,0.82,168.78,270520,,,A*6F
$GPGGA,230338.447,5126.6654,N,00710.5761,E,1,04,3.2,143.0,M,47.5,M,,0000*55
$GPGSA,A,3,09,06,07,03,,,,,,,,,5.2,3.2,4.0*3B
$GPRMC,230338.447,A,5126.6654,N,00710.5761,E,1.04,168.78,270520,,,A*65
$GPGGA,230339.447,5126.6655,N,00710.5754,E,1,04,3.2,143.7,M,47.5,M,,0000*54
$GPGSA,A,3,09,06,07,03,,,,,,,,,5.2,3.2,4.0*3B
$GPGSV,3,1,12,09,84,070,31,06,54,236,24,07,36,171,21,03,12,115,18*74
$GPGSV,3,2,12,25,72,197,,02,66,072,,19,57,076,,21,42,060,*79
$GPGSV,3,3,12,08,38,272,,26,36,303,,28,28,309,,22,28,124,*78
$GPRMC,230339.447,A,5126.6655,N,00710.5754,E,1.31,179.09,270520,,,A*63
$GPGGA,230340.447,5126.6657,N,00710.5750,E,1,04,3.2,144.0,M,47.5,M,,0000*5C
$GPGSA,A,3,09,06,07,03,,,,,,,,,5.2,3.2,4.0*3B
$GPRMC,230340.447,A,5126.6657,N,00710.5750,E,0.58,179.09,270520,,,A*65
$GPGGA,230341.447,5126.6648,N,00710.5755,E,1,04,3.2,144.9,M,47.5,M,,0000*5F
$GPGSA,A,3,09,06,07,03,,,,,,,,,5.2,3.2,4.0*3B
$GPRMC,230341.447,A,5126.6648,N,00710.5755,E,2.06,172.03,270520,,,A*67
$GPGGA,230342.447,5126.6638,N,00710.5771,E,1,04,3.2,146.7,M,47.5,M,,0000*51
$GPGSA,A,3,09,06,07,03,,,,,,,,,5.2,3.2,4.0*3B
$GPRMC,230342.447,A,5126.6638,N,00710.5771,E,1.74,167.55,270520,,,A*64
$GPGGA,230343.447,5126.6634,N,00710.5781,E,1,04,3.2,146.8,M,47.5,M,,0000*5C
$GPGSA,A,3,09,06,07,03,,,,,,,,,5.2,3.2,4.0*3B
$GPRMC,230343.447,A,5126.6634,N,00710.5781,E,1.27,165.47,270520,,,A*61
$GPGGA,230344.447,5126.6636,N,00710.5783,E,1,04,3.2,146.1,M,47.5,M,,0000*52
$GPGSA,A,3,09,06,07,03,,,,,,,,,5.2,3.2,4.0*3B
$GPGSV,3,1,12,09,84,070,31,06,54,236,24,07,36,171,21,03,12,115,18*74
$GPGSV,3,2,12,25,72,197,,02,66,072,,19,57,076,,21,42,060,*79
$GPGSV,3,3,12,08,38,272,,26,36,303,,28,28,309,,22,28,124,*78
$GPRMC,230344.447,A,5126.6636,N,00710.5783,E,0.30,165.47,270520,,,A*61
$GPGGA,230345.447,5126.6646,N,00710.5777,E,1,04,3.2,144.9,M,47.5,M,,0000*55
$GPGSA,A,3,09,06,07,03,,,,,,,,,5.2,3.2,4.0*3B
$GPRMC,230345.447,A,5126.6646,N,00710.5777,E,2.14,190.52,270520,,,A*66
$GPGGA,230346.447,5126.6656,N,00710.5777,E,1,04,3.2,141.5,M,47.5,M,,0000*5E
$GPGSA,A,3,09,06,07,03,,,,,,,,,5.2,3.2,4.0*3B
$GPRMC,230346.447,A,5126.6656,N,00710.5777,E,0.42,190.52,270520,,,A*65
$GPGGA,230347.447,5126.6654,N,00710.5782,E,1,04,3.2,140.9,M,47.5,M,,0000*5A
$GPGSA,A,3,09,06,07,03,,,,,,,,,5.2,3.2,4.0*3B
$GPRMC,230347.447,A,5126.6654,N,00710.5782,E,0.63,190.52,270520,,,A*6F
$GPGGA,230348.447,5126.6653,N,00710.5791,E,1,04,3.2,140.2,M,47.5,M,,0000*5B
$GPGSA,A,3,09,06,07,03,,,,,,,,,5.2,3.2,4.0*3B
$GPRMC,230348.447,A,5126.6653,N,00710.5791,E,0.63,190.52,270520,,,A*65
$GPGGA,230349.447,5126.6651,N,00710.5801,E,1,04,3.2,140.0,M,47.5,M,,0000*5C
$GPGSA,A,3,09,06,07,03,,,,,,,,,5.2,3.2,4.0*3B
$GPGSV,3,1,12,09,84,070,31,06,54,236,24,07,36,171,21,03,12,115,18*74
$GPGSV,3,2,12,25,72,197,,02,66,072,,19,57,076,,21,42,060,*79
$GPGSV,3,3,12,08,38,272,,26,36,303,,28,28,309,,22,28,124,*78
$GPRMC,230349.447,A,5126.6651,N,00710.5801,E,1.09,190.52,270520,,,A*6D
$GPGGA,230350.447,5126.6654,N,00710.5805,E,1,04,3.2,139.1,M,47.5,M,,0000*5A
$GPGSA,A,3,09,06,07,03,,,,,,,,,5.2,3.2,4.0*3B
$GPRMC,230350.447,A,5126.6654,N,00710.5805,E,1.02,190.52,270520,,,A*6F
$GPGGA,230351.447,5126.6655,N,00710.5812,E,1,04,3.2,138.6,M,47.5,M,,0000*5A
$GPGSA,A,3,09,06,07,03,,,,,,,,,5.2,3.2,4.0*3B
$GPRMC,230351.447,A,5126.6655,N,00710.5812,E,1.28,179.62,270520,,,A*65
$GPGGA,230352.447,5126.6658,N,00710.5817,E,1,04,3.2,138.2,M,47.5,M,,0000*55
$GPGSA,A,3,09,06,07,03,,,,,,,,,5.2,3.2,4.0*3B
$GPRMC,230352.447,A,5126.6658,N,00710.5817,E,0.36,179.62,270520,,,A*60
$GPGGA,230353.447,5126.6664,N,00710.5817,E,1,04,3.2,137.8,M,47.5,M,,0000*5E
$GPGSA,A,3,09,06,07,03,,,,,,,,,5.2,3.2,4.0*3B
$GPRMC,230353.447,A,5126.6664,N,00710.5817,E,1.81,218.62,270520,,,A*67
$GPGGA,230354.447,5126.6672,N,00710.5814,E,1,04,3.2,137.2,M,47.5,M,,0000*57
$GPGSA,A,3,09,06,07,03,,,,,,,,,5.2,3.2,4.0*3B
$GPGSV,3,1,12,09,84,070,31,06,54,236,24,07,36,171,21,03,12,115,18*74
$GPGSV,3,2,12,25,72,197,,02,66,072,,19,57,076,,21,42,060,*79
$GPGSV,3,3,12,08,38,272,,26,36,303,,28,28,309,,22,28,124,*78
$GPRMC,230354.447,A,5126.6672,N,00710.5814,E,1.17,232.49,270520,,,A*6A
$GPGGA,230355.447,5126.6670,N,00710.5818,E,1,04,3.2,137.4,M,47.5,M,,0000*5E
$GPGSA,A,3,09,06,07,03,,,,,,,,,5.2,3.2,4.0*3B
$GPRMC,230355.447,A,5126.6670,N,00710.5818,E,1.43,218.89,270520,,,A*60
$GPGGA,230356.447,5126.6659,N,00710.5839,E,1,04,3.2,138.7,M,47.5,M,,0000*59
$GPGSA,A,3,09,06,07,03,,,,,,,,,5.2,3.2,4.0*3B
$GPRMC,230356.447,A,5126.6659,N,00710.5839,E,3.20,171.74,270520,,,A*62
$GPGGA,230357.447,5126.6659,N,00710.5850,E,1,04,3.2,139.1,M,47.5,M,,0000*50
$GPGSA,A,3,09,06,07,03,,,,,,,,,5.2,3.2,4.0*3B
$GPRMC,230357.447,A,5126.6659,N,00710.5850,E,1.48,164.08,270520,,,A*6F
$GPGGA,230358.447,5126.6663,N,00710.5860,E,1,04,3.2,139.6,M,47.5,M,,0000*52
$GPGSA,A,3,09,06,07,03,,,,,,,,,5.2,3.2,4.0*3B
$GPRMC,230358.447,A,5126.6663,N,00710.5860,E,1.74,146.54,270520,,,A*6C
$GPGGA,230359.447,5126.6666,N,00710.5867,E,1,04,3.2,140.4,M,47.5,M,,0000*5D
$GPGSA,A,3,09,06,07,03,,,,,,,,,5.2,3.2,4.0*3B
$GPGSV,3,1,12,09,84,070,31,06,54,236,25,07,36,171,18,03,12,115,18*7F
$GPGSV,3,2,12,25,72,197,,02,66,072,,19,57,076,,21,42,060,*79
$GPGSV,3,3,12,08,38,272,,26,36,303,,28,28,309,,22,28,124,*78
$GPRMC,230359.447,A,5126.6666,N,00710.5867,E,1.13,146.54,270520,,,A*6E
$GPGGA,230400.447,5126.6672,N,00710.5876,E,1,04,3.2,141.3,M,47.5,M,,0000*55
$GPGSA,A,3,09,06,07,03,,,,,,,,,5.2,3.2,4.0*3B
$GPRMC,230400.447,A,5126.6672,N,00710.5876,E,1.07,146.54,270520,,,A*65
$GPGGA,230401.447,5126.6676,N,00710.5883,E,1,04,3.2,142.5,M,47.5,M,,0000*5F
$GPGSA,A,3,09,06,07,03,,,,,,,,,5.2,3.2,4.0*3B
$GPRMC,230401.447,A,5126.6676,N,00710.5883,E,1.16,146.54,270520,,,A*6A
$GPGGA,230402.447,5126.6680,N,00710.5877,E,1,04,3.2,143.2,M,47.5,M,,0000*58
$GPGSA,A,3,09,06,07,03,,,,,,,,,5.2,3.2,4.0*3B
$GPRMC,230402.447,A,5126.6680,N,00710.5877,E,2.40,114.67,270520,,,A*6C
$GPGGA,230403.447,5126.6687,N,00710.5866,E,1,04,3.2,144.0,M,47.5,M,,0000*5B
$GPGSA,A,3,09,06,07,03,,,,,,,,,5.2,3.2,4.0*3B
$GPRMC,230403.447,A,5126.6687,N,00710.5866,E,3.92,67.10,270520,,,A*51
$GPGGA,230404.447,5126.6694,N,00710.5860,E,1,04,3.2,144.3,M,47.5,M,,0000*5B
$GPGSA,A,3,09,06,07,03,,,,,,,,,5.2,3.2,4.0*3B
$GPGSV,3,1,12,09,84,070,31,06,54,236,25,07,36,171,17,03,12,115,17*7F
$GPGSV,3,2,12,25,72,197,,02,66,072,,19,57,076,,21,42,060,*79
$GPGSV,3,3,12,08,38,272,,26,36,303,,28,28,309,,22,28,124,*78
$GPRMC,230404.447,A,5126.6694,N,00710.5860,E,2.76,49.19,270520,,,A*5C
$GPGGA,230405.447,5126.6708,N,00710.5852,E,1,04,3.2,144.1,M,47.5,M,,0000*5D
$GPGSA,A,3,09,06,07,03,,,,,,,,,5.2,3.2,4.0*3B
$GPRMC,230405.447,A,5126.6708,N,00710.5852,E,4.44,28.19,270520,,,A*58
$GPGGA,230406.447,5126.6718,N,00710.5841,E,1,04,3.2,143.7,M,47.5,M,,0000*5C
$GPGSA,A,3,09,06,07,03,,,,,,,,,5.2,3.2,4.0*3B
$GPRMC,230406.447,A,5126.6718,N,00710.5841,E,2.15,22.26,270520,,,A*5C
$GPGGA,230407.447,5126.6731,N,00710.5833,E,1,03,3.6,143.0,M,47.5,M,,0000*57
$GPGSA,A,2,09,07,03,,,,,,,,,,4.8,3.6,3.2*36
$GPRMC,230407.447,A,5126.6731,N,00710.5833,E,2.73,16.27,270520,,,A*55
$GPGGA,230408.447,5126.6738,N,00710.5827,E,1,04,3.2,142.9,M,47.5,M,,0000*5F
$GPGSA,A,3,09,06,07,03,,,,,,,,,5.1,3.2,4.0*38
$GPRMC,230408.447,A,5126.6738,N,00710.5827,E,2.14,10.75,270520,,,A*56
$GPGGA,230409.447,5126.6740,N,00710.5826,E,1,04,3.2,142.7,M,47.5,M,,0000*5E
$GPGSA,A,3,09,06,07,03,,,,,,,,,5.1,3.2,4.0*38
$GPGSV,3,1,12,09,84,070,31,06,54,236,24,07,36,171,16,03,12,115,17*7F
$GPGSV,3,2,12,25,72,197,,02,66,072,,19,57,076,,21,42,060,*79
$GPGSV,3,3,12,08,38,272,,26,36,303,,28,28,309,,22,28,124,*78
$GPRMC,230409.447,A,5126.6740,N,00710.5826,E,1.04,10.75,270520,,,A*5B
$GPGGA,230410.447,5126.6743,N,00710.5826,E,1,04,3.2,142.6,M,47.5,M,,0000*54
$GPGSA,A,3,09,06,07,03,,,,,,,,,5.1,3.2,4.0*38
$GPRMC,230410.447,A,5126.6743,N,00710.5826,E,0.92,10.75,270520,,,A*5E
$GPGGA,230411.447,5126.6748,N,00710.5827,E,1,04,3.2,141.9,M,47.5,M,,0000*53
$GPGSA,A,3,09,06,07,03,,,,,,,,,5.1,3.2,4.0*38
$GPRMC,230411.447,A,5126.6748,N,00710.5827,E,0.57,10.75,270520,,,A*5C
$GPGGA,230412.447,5126.6746,N,00710.5822,E,1,04,3.2,141.4,M,47.5,M,,0000*56
$GPGSA,A,3,09,06,07,03,,,,,,,,,5.1,3.2,4.0*38
$GPRMC,230412.447,A,5126.6746,N,00710.5822,E,1.27,0.47,270520,,,A*62
$GPGGA,230413.447,5126.6747,N,00710.5814,E,1,04,3.2,140.9,M,47.5,M,,0000*5F
$GPGSA,A,3,09,06,07,03,,,,,,,,,5.1,3.2,4.0*38
$GPRMC,230413.447,A,5126.6747,N,00710.5814,E,1.68,355.82,270520,,,A*66
$GPGGA,230414.447,5126.6745,N,00710.5809,E,1,04,3.2,140.4,M,47.5,M,,0000*5B
$GPGSA,A,3,09,06,07,03,,,,,,,,,5.1,3.2,4.0*38
$GPGSV,3,1,12,09,84,070,31,06,54,236,25,07,36,171,15,03,12,115,17*7D
$GPGSV,3,2,12,25,72,197,,02,66,072,,19,57,076,,21,42,060,*79
$GPGSV,3,3,12,08,38,272,,26,36,303,,28,28,309,,22,28,124,*78
$GPRMC,230414.447,A,5126.6745,N,00710.5809,E,1.67,348.43,270520,,,A*61
$GPGGA,230415.447,5126.6741,N,00710.5804,E,1,04,3.2,140.1,M,47.5,M,,0000*56
$GPGSA,A,3,09,06,07,03,,,,,,,,,5.1,3.2,4.0*38
$GPRMC,230415.447,A,5126.6741,N,00710.5804,E,0.97,348.43,270520,,,A*67
$GPGGA,230416.447,5126.6738,N,00710.5801,E,1,04,3.2,139.9,M,47.5,M,,0000*58
$GPGSA,A,3,09,06,07,03,,,,,,,,,5.1,3.2,4.0*38
$GPRMC,230416.447,A,5126.6738,N,00710.5801,E,0.81,348.43,270520,,,A*68
$GPGGA,230417.447,5126.6736,N,00710.5802,E,1,04,3.2,139.7,M,47.5,M,,0000*5A
$GPGSA,A,3,09,06,07,03,,,,,,,,,5.1,3.2,4.0*38
$GPRMC,230417.447,A,5126.6736,N,00710.5802,E,1.29,340.10,270520,,,A*69
$GPGGA,230418.447,5126.6731,N,00710.5801,E,1,04,3.2,139.8,M,47.5,M,,0000*5E
$GPGSA,A,3,09,06,07,03,,,,,,,,,5.1,3.2,4.0*38
$GPRMC,230418.447,A,5126.6731,N,00710.5801,E,0.69,340.10,270520,,,A*67
$GPGGA,230419.447,5126.6725,N,00710.5804,E,1,04,3.2,140.1,M,47.5,M,,0000*58
$GPGSA,A,3,09,06,07,03,,,,,,,,,5.1,3.2,4.0*38
$GPGSV,3,1,12,09,84,070,31,06,54,236,25,07,36,171,12,03,12,115,17*7A
$GPGSV,3,2,12,25,72,197,,02,66,072,,19,57,076,,21,42,060,*79
$GPGSV,3,3,12,08,38,272,,26,36,303,,28,28,309,,22,28,124,*78
$GPRMC,230419.447,A,5126.6725,N,00710.5804,E,0.62,340.10,270520,,,A*6D
$GPGGA,230420.447,5126.6718,N,00710.5800,E,1,04,3.2,139.8,M,47.5,M,,0000*5F
$GPGSA,A,3,09,06,07,03,,,,,,,,,5.1,3.2,4.0*38
$GPRMC,230420.447,A,5126.6718,N,00710.5800,E,1.38,332.07,270520,,,A*60
$GPGGA,230421.447,5126.6711,N,00710.5796,E,1,04,3.2,139.5,M,47.5,M,,0000*5A
$GPGSA,A,3,09,06,07,03,,,,,,,,,5.1,3.2,4.0*38
$GPRMC,230421.447,A,5126.6711,N,00710.5796,E,0.50,332.07,27
